{ "locations": [
	{
		"name": "Daily Buzz",
		"address": "124 E Walnut St APt 124",
		"city": "Green Bay",
		"state": "Wisconsin" ,
		"website": "http://www.dailybuzzgb.com/",
		"latLong": {"lat":44.5165 , "lng": -88.0155 },
		"specialty": "bakery items"
	},
	{
		"name": "Kavarna",
		"address": "143 N. Broadway",
		"city": "Green Bay",
		"state": "Wisconsin",
		"website": "https://kavarna.com/",
		"latLong": {"lat":44.5175 , "lng": -88.0214 },
		"specialty": "hummus and vegetarian options"
	},
	{
		"name": "The Attic",
		"address": "730 Bodart St",
		"city": "Green Bay",
		"state": "Wisconsin",
		"website": "https://theatticcorner.com/",
		"latLong": {"lat":44.5142 , "lng": -88.0059 },
		"specialty": "seasonal cider and teas"
	},
	{
		"name": "Copper Rock Coffee Company",
		"address": "313 Dousman St",
		"city": "Green Bay",
		"state": "Wisconsin",
		"website": "https://www.copperrockcoffee.com/",
		"latLong": {"lat":44.2620 , "lng": -88.4079 },
		"specialty": "in-house roasting"
	},
	{
		"name": "The Creamery",
		"address": "114 Pine St.",
		"city": "Green Bay",
		"state": "Wisconsin",
		"website": "https://www.thecreamerycafe.com/",
		"latLong": {"lat":44.5165 , "lng": -88.0155 },
		"specialty": "cakes and pastries"
	}]
}